[
    {
        "name": "Hartsfield-Jackson Atlanta International Airport",
        "iata": "ATL",
        "city": "Atlanta",
        "connections": 200,
        "latitude": 33.6407,
        "longitude": -84.4277
    },
    {
        "name": "Beijing Capital International Airport",
        "iata": "PEK",
        "city": "Beijing",
        "connections": 180,
        "latitude": 40.0799,
        "longitude": 116.6031
    },
    {
        "name": "Los Angeles International Airport",
        "iata": "LAX",
        "city": "Los Angeles",
        "connections": 170,
        "latitude": 33.9416,
        "longitude": -118.4085
    },
    {
        "name": "Dubai International Airport",
        "iata": "DXB",
        "city": "Dubai",
        "connections": 150,
        "latitude": 25.2532,
        "longitude": 55.3657
    },
    {
        "name": "Tokyo Haneda Airport",
        "iata": "HND",
        "city": "Tokyo",
        "connections": 160,
        "latitude": 35.5494,
        "longitude": 139.7798
    },
    {
        "name": "O'Hare International Airport",
        "iata": "ORD",
        "city": "Chicago",
        "connections": 140,
        "latitude": 41.9742,
        "longitude": -87.9073
    },
    {
        "name": "London Heathrow Airport",
        "iata": "LHR",
        "city": "London",
        "connections": 130,
        "latitude": 51.4700,
        "longitude": -0.4543
    },
    {
        "name": "Hong Kong International Airport",
        "iata": "HKG",
        "city": "Hong Kong",
        "connections": 120,
        "latitude": 22.3080,
        "longitude": 113.9185
    },
    {
        "name": "Shanghai Pudong International Airport",
        "iata": "PVG",
        "city": "Shanghai",
        "connections": 125,
        "latitude": 31.1443,
        "longitude": 121.8083
    },
    {
        "name": "Charles de Gaulle Airport",
        "iata": "CDG",
        "city": "Paris",
        "connections": 135,
        "latitude": 49.0097,
        "longitude": 2.5479
    },
    {
        "name": "Dallas/Fort Worth International Airport",
        "iata": "DFW",
        "city": "Dallas",
        "connections": 110,
        "latitude": 32.8998,
        "longitude": -97.0403
    },
    {
        "name": "Frankfurt am Main Airport",
        "iata": "FRA",
        "city": "Frankfurt",
        "connections": 145,
        "latitude": 50.0379,
        "longitude": 8.5622
    },
    {
        "name": "Singapore Changi Airport",
        "iata": "SIN",
        "city": "Singapore",
        "connections": 155,
        "latitude": 1.3644,
        "longitude": 103.9915
    },
    {
        "name": "Incheon International Airport",
        "iata": "ICN",
        "city": "Seoul",
        "connections": 140,
        "latitude": 37.4602,
        "longitude": 126.4407
    },
    {
        "name": "Denver International Airport",
        "iata": "DEN",
        "city": "Denver",
        "connections": 115,
        "latitude": 39.8561,
        "longitude": -104.6737
    },
    {
        "name": "Soekarno-Hatta International Airport",
        "iata": "CGK",
        "city": "Jakarta",
        "connections": 90,
        "latitude": -6.1256,
        "longitude": 106.6559
    },
    {
        "name": "Amsterdam Schiphol Airport",
        "iata": "AMS",
        "city": "Amsterdam",
        "connections": 140,
        "latitude": 52.3105,
        "longitude": 4.7683
    },
    {
        "name": "Guangzhou Baiyun International Airport",
        "iata": "CAN",
        "city": "Guangzhou",
        "connections": 130,
        "latitude": 23.3924,
        "longitude": 113.2988
    },
    {
        "name": "John F. Kennedy International Airport",
        "iata": "JFK",
        "city": "New York",
        "connections": 125,
        "latitude": 40.6413,
        "longitude": -73.7781
    },
    {
        "name": "Kuala Lumpur International Airport",
        "iata": "KUL",
        "city": "Kuala Lumpur",
        "connections": 95,
        "latitude": 2.7456,
        "longitude": 101.7072
    },
    {
        "name": "Singapore Changi Airport",
        "iata": "SIN",
        "city": "Singapore",
        "connections": 155,
        "latitude": 1.3644,
        "longitude": 103.9915
    },
    {
        "name": "Madrid-Barajas Adolfo Su√°rez Airport",
        "iata": "MAD",
        "city": "Madrid",
        "connections": 135,
        "latitude": 40.4722,
        "longitude": -3.5608
    },
    {
        "name": "Miami International Airport",
        "iata": "MIA",
        "city": "Miami",
        "connections": 140,
        "latitude": 25.7959,
        "longitude": -80.2871
    },
    {
        "name": "Narita International Airport",
        "iata": "NRT",
        "city": "Tokyo",
        "connections": 130,
        "latitude": 35.7656,
        "longitude": 140.3850
    },
    {
        "name": "Chhatrapati Shivaji Maharaj International Airport",
        "iata": "BOM",
        "city": "Mumbai",
        "connections": 125,
        "latitude": 19.0896,
        "longitude": 72.8656
    },
    {
        "name": "Toronto Pearson International Airport",
        "iata": "YYZ",
        "city": "Toronto",
        "connections": 145,
        "latitude": 43.6777,
        "longitude": -79.6248
    },
    {
        "name": "Sydney Kingsford Smith Airport",
        "iata": "SYD",
        "city": "Sydney",
        "connections": 110,
        "latitude": -33.9399,
        "longitude": 151.1753
    },
    {
        "name": "Doha Hamad International Airport",
        "iata": "DOH",
        "city": "Doha",
        "connections": 125,
        "latitude": 25.2736,
        "longitude": 51.6136
    },
    {
        "name": "San Francisco International Airport",
        "iata": "SFO",
        "city": "San Francisco",
        "connections": 120,
        "latitude": 37.7749,
        "longitude": -122.4194
    },
    {
        "name": "Suvarnabhumi Airport",
        "iata": "BKK",
        "city": "Bangkok",
        "connections": 115,
        "latitude": 13.6899,
        "longitude": 100.7501
    },
    {
        "name": "Boston Logan International Airport",
        "iata": "BOS",
        "city": "Boston",
        "connections": 110,
        "latitude": 42.3656,
        "longitude": -71.0096
    },
    {
        "name": "Vienna International Airport",
        "iata": "VIE",
        "city": "Vienna",
        "connections": 90,
        "latitude": 48.1103,
        "longitude": 16.5697
    },
    {
        "name": "Zurich Airport",
        "iata": "ZRH",
        "city": "Zurich",
        "connections": 85,
        "latitude": 47.4647,
        "longitude": 8.5492
    },
    {
        "name": "Copenhagen Airport",
        "iata": "CPH",
        "city": "Copenhagen",
        "connections": 80,
        "latitude": 55.6179,
        "longitude": 12.6561
    },
    {
        "name": "Stockholm Arlanda Airport",
        "iata": "ARN",
        "city": "Stockholm",
        "connections": 95,
        "latitude": 59.6519,
        "longitude": 17.9186
    },
    {
        "name": "Helsinki-Vantaa Airport",
        "iata": "HEL",
        "city": "Helsinki",
        "connections": 75,
        "latitude": 60.3172,
        "longitude": 24.9633
    },
    {
        "name": "Oslo Gardermoen Airport",
        "iata": "OSL",
        "city": "Oslo",
        "connections": 70,
        "latitude": 60.1939,
        "longitude": 11.1004
    },
    {
        "name": "Brussels Airport",
        "iata": "BRU",
        "city": "Brussels",
        "connections": 85,
        "latitude": 50.9010,
        "longitude": 4.4844
    },
    {
        "name": "Lisbon Humberto Delgado Airport",
        "iata": "LIS",
        "city": "Lisbon",
        "connections": 95,
        "latitude": 38.7742,
        "longitude": -9.1342
    },
    {
        "name": "Milan Malpensa Airport",
        "iata": "MXP",
        "city": "Milan",
        "connections": 100,
        "latitude": 45.6301,
        "longitude": 8.7231
    },
    {
        "name": "Rome Fiumicino Airport",
        "iata": "FCO",
        "city": "Rome",
        "connections": 120,
        "latitude": 41.8003,
        "longitude": 12.2389
    },
    {
        "name": "Warsaw Chopin Airport",
        "iata": "WAW",
        "city": "Warsaw",
        "connections": 90,
        "latitude": 52.1657,
        "longitude": 20.9670
    },
    {
        "name": "Athens International Airport",
        "iata": "ATH",
        "city": "Athens",
        "connections": 85,
        "latitude": 37.9364,
        "longitude": 23.9475
    },
    {
        "name": "Berlin Brandenburg Airport",
        "iata": "BER",
        "city": "Berlin",
        "connections": 100,
        "latitude": 52.3667,
        "longitude": 13.5033
    },
    {
        "name": "Prague Vaclav Havel Airport",
        "iata": "PRG",
        "city": "Prague",
        "connections": 80,
        "latitude": 50.1008,
        "longitude": 14.2632
    },
    {
        "name": "Budapest Ferenc Liszt International Airport",
        "iata": "BUD",
        "city": "Budapest",
        "connections": 75,
        "latitude": 47.4369,
        "longitude": 19.2556
    }
]
